v_id,lon,lat,typ,voltage,frequency,name,operator,ref,wkt_srid_4326
5294,19.1410709272918,50.3521511601746,substation,400000;220000;110000,,"Stacja elektroenergetyczna ""Łagisza"" 400/220/110 kV",PSE Operator,LAG,SRID=4326;POINT(19.1410709272918 50.3521511601746)
58030,19.2099099156966,50.083659279666,joint,220000,,220kV Byczyna - Poręba;220kV Komorowice - Bieruń; Byczyna - Poręba;220kV Komorowice - Bieruń,,,SRID=4326;POINT(19.2099099156966 50.083659279666)
48385,19.1576238645604,50.2434126827755,substation,,,"Stacja elektroenergetyczna ""Modrzejów"" 110kV",,,SRID=4326;POINT(19.1576238645604 50.2434126827755)
9056,23.2360687058987,50.7314785785676,substation,,,"Stacja elektroenergetyczna 110kV ""Zamość Janowice""",,,SRID=4326;POINT(23.2360687058987 50.7314785785676)
49224,21.5568219570185,52.2697204922515,substation,400000,,"Stacja elektrenergetyczna 400kV ""Stanisławów""",,STN,SRID=4326;POINT(21.5568219570185 52.2697204922515)
33000,18.5468016902279,50.1309108115106,joint,,,,,,SRID=4326;POINT(18.5468016902279 50.1309108115106)
51293,21.7818920963863,49.607415642952,substation,110000,,"Stacja elektroenergetyczna 110kV ""Iwonicz""",,,SRID=4326;POINT(21.7818920963863 49.607415642952)
56385,20.870790401966,52.2907730646451,joint,400000,50,400kV Mościska - Miłosna;400kV Ołtarzew - Miłosna;400kV Miłosna - Ołtarzew / Mościska,PSE Operator,,SRID=4326;POINT(20.870790401966 52.2907730646451)
43652,19.384725753492,51.2418766426695,substation,220000;110000,,"Stacja elektroenergetyczna ""Kopalnia Bełchatów"" 220/110kV",,BEK,SRID=4326;POINT(19.384725753492 51.2418766426695)
15295,22.3440003671178,52.1297306876238,substation,400000;110000,,"Stacja elektroenergetyczna 400/110kV ""Siedlce Ujrzanów""",PSE Operator oddział Warszawa,SDU,SRID=4326;POINT(22.3440003671178 52.1297306876238)
55122,17.849235962603,51.6360613951213,merge,400000;110000,,"Stacja elektroenergetyczna ""Ostrów"" 400/110 kV",PSE Operator,OSR,SRID=4326;POINT(17.849235962603 51.6360613951213)
64794,15.4421210315478,51.9415479692007,joint,220000;110000,,220kV Leśniów - Zielona Góra;110kV Leśniów - Łużycka,,,SRID=4326;POINT(15.4421210315478 51.9415479692007)
17289,19.1343173761529,50.2335427497691,substation,,,,,,SRID=4326;POINT(19.1343173761529 50.2335427497691)
30670,21.2176867066905,50.5022972653072,joint,220000,,220 kV Połaniec - Chmielów I;220 kV Połaniec - Radkowice;220 kV Połaniec - Chmielów I; Połaniec - Radkowice,,,SRID=4326;POINT(21.2176867066905 50.5022972653072)
49223,22.1340334875923,53.0908070672203,substation,400000,,"Stacja elektrenergetyczna 400kV ""Łomża""",PSE Operator,LMS,SRID=4326;POINT(22.1340334875923 53.0908070672203)
22878,20.1431241197834,50.0502481657052,joint,220000,,220kV Lubocza - Wanda;220kV Lubocza - Klikowa;220kV Lubocza - Wanda / Klikowa,,,SRID=4326;POINT(20.1431241197834 50.0502481657052)
30809,15.3125756132456,51.9393407693633,joint,220000;110000,,220kV Leśniów - Zielona Góra;110kV Leśniów - Łużycka,,,SRID=4326;POINT(15.3125756132456 51.9393407693633)
65993,21.0486400297259,50.4421999806268,joint,220000;110000,,220kV Klikowa - Niziny;110kV Połaniec - Cegielnia Oleśnica,,,SRID=4326;POINT(21.0486400297259 50.4421999806268)
36969,20.8775465337779,52.2143946760705,substation,220000;110000,50,"Stacja elektroenergetyczna ""Mory"" 220/110kV",PSE Operator,MOR,SRID=4326;POINT(20.8775465337779 52.2143946760705)
57294,18.5442988940149,50.1307435837606,joint,220000,,220kV Wielopole - Kędzierzyn;220kV Wielopole - Blachownia;220kV Wielopole - Kędzierzyn/Blachownia,,,SRID=4326;POINT(18.5442988940149 50.1307435837606)
27848,16.8879900240578,52.3020599774198,joint,400000;220000;220000,50,400kV Plewiska - Ostrów + 220kV Plewiska - Konin;400kV Plewiska - Ostrów + 220kv Plewiska - Konin + 220kV Plewiska - PPD + unused;220kV Plewiska - PPD + unused,,,SRID=4326;POINT(16.8879900240578 52.3020599774198)
58974,19.1523367094743,50.2328071828455,joint,,,,,,SRID=4326;POINT(19.1523367094743 50.2328071828455)
55050,19.2080543855499,50.207458335855,merge,,,Elektrownia Jaworzno III;Stacja elektroenergetyczna 110kV,TAURON Wytwarzanie S.A.,,SRID=4326;POINT(19.2080543855499 50.207458335855)
31452,15.4465900602548,51.9427549164575,joint,220000;110000,,220kV Leśniów - Zielona Góra;110kV Krośnieńska - Energetyków,,,SRID=4326;POINT(15.4465900602548 51.9427549164575)
22445,20.8754953282666,52.0637803748361,joint,220000,,220kV Mory - Piaseczno;220kV Kozienice - Mory;220kV x 2 Mory - Piaseczno/Kozienice,,,SRID=4326;POINT(20.8754953282666 52.0637803748361)
30027,16.9255252298895,52.2974621623486,joint,400000;220000;220000,50,400kV Plewiska - Kromolice + 220kV Plewiska - Konin + 110kV Plewiska - Kromolice;400kV Plewiska - Ostrów + 220kV Plewiska - Konin,,,SRID=4326;POINT(16.9255252298895 52.2974621623486)
29111,21.8667921044908,50.1890664944288,joint,400000;110000;110000;110000,,400 kV Rzeszów - Krosno Iskrzynia,,,SRID=4326;POINT(21.8667921044908 50.1890664944288)
61921,19.2689488131364,50.2409713885943,joint,400000,,400kV Tucznawa - Tarnów;400kV Tucznawa - Rzeszów;400kV Tucznawa - Rzeszów + Tucznawa - Tarnów,,,SRID=4326;POINT(19.2689488131364 50.2409713885943)
62226,18.8785136818734,50.1920942940613,joint,220000,,220kV Kopanina - Katowice;220kV KOP - Katowice;220kV Łagisza - Byczyna / Halemba;220kV Łagisza - Byczyna / Halemba; Kopanina - Katowice,,,SRID=4326;POINT(18.8785136818734 50.1920942940613)
42480,20.8754346470692,52.1857025419622,substation,,,"Stacja elektroenergetyczna ""Ursus Miasto"" 110/15kV",,,SRID=4326;POINT(20.8754346470692 52.1857025419622)
11698,18.2542238261293,50.3171410479272,substation,,,"Stacja elektroenergetyczna ""Kędzierzyn"" 220/110kV",,KED,SRID=4326;POINT(18.2542238261293 50.3171410479272)
6755,21.0296262554832,52.3708351249367,substation,,,"Stacja elektroenergetyczna ""Kobiałka"" 110kV",,,SRID=4326;POINT(21.0296262554832 52.3708351249367)
12026,20.9263983074902,50.0226291501566,substation,,,"Stacja elektroenergetyczna ""Azoty Tarnów"" 220/110kV",,ATA,SRID=4326;POINT(20.9263983074902 50.0226291501566)
38865,19.212740258039,49.8424072300676,substation,220000,,"Stacja elektroenergetyczna ""Bujaków"" 220kV",PSE Operator,BUJ,SRID=4326;POINT(19.212740258039 49.8424072300676)
26659,18.7010119716231,49.8927076035445,joint,220000,,220kV Bujaków - Lískovec;220kV Bujaków - Lískovec; Komorowice - Bieruń;220kV Komorowice - Bieruń,,,SRID=4326;POINT(18.7010119716231 49.8927076035445)
64631,19.4204701673917,51.321021067738,joint,220000,,220kV Rogowiec - Janów;220kV Rogowiec - Piotrków;220kV Rogowiec - Janów + Rogowiec - Piotrków,,,SRID=4326;POINT(19.4204701673917 51.321021067738)
32437,21.0710937795786,50.9807726974838,joint,220000,,220kV Rożki - Niziny,,,SRID=4326;POINT(21.0710937795786 50.9807726974838)
24142,19.470730548212,50.4838250007758,joint,220000,,220kV Siersza - Łośnice;220kV Koksochemia - Łośnice; Siersza - Łośnice;220kV Koksochemia - Łośnice,,,SRID=4326;POINT(19.470730548212 50.4838250007758)
30356,16.886586675921,51.0028445719019,joint,400000;110000;110000,,400kV Pasikurowice - Wrocław;110kV Wrocław - Żórawina;110kV Wrocław - Bielany,,,SRID=4326;POINT(16.886586675921 51.0028445719019)
65995,21.0554499782317,50.4960599962515,joint,220000;110000,,220kV Klikowa - Niziny;110kV Połaniec - Grzybów,,,SRID=4326;POINT(21.0554499782317 50.4960599962515)
30382,18.9894460973202,50.9491476755377,joint,400000,,400kV Dobrzeń - Trębaczew + Trębaczew - Joachimów;400 kV Trębaczew - Joachimów;400kV Dobrzeń - Trębaczew,,,SRID=4326;POINT(18.9894460973202 50.9491476755377)
21578,16.0951087079343,54.1267624089943,merge,400000;220000;110000,,"Stacja elektroenergetyczna ""Dunowo"" 400/220/110 kV",PSE Operator,DUN,SRID=4326;POINT(16.0951087079343 54.1267624089943)
10684,18.9078193360261,51.1427273282451,substation,400000;110000,,Stacja elektroenergetyczna „Trębaczew” 400/110 kV,PSE Operator,TRE,SRID=4326;POINT(18.9078193360261 51.1427273282451)
25100,19.1628535560001,50.2430897936571,joint,,,,,,SRID=4326;POINT(19.1628535560001 50.2430897936571)
33600,14.4780349650808,53.1910831874546,joint,220000,50,507;508 Krajnik - Vierraden,PSE Operator,,SRID=4326;POINT(14.4780349650808 53.1910831874546)
46510,21.9328776620567,49.9940807992512,substation,220000;110000;30000;15000,,"Stacja elektroenergetyczna ""Boguchwała"" 220/110 kV",PSE Operator,BGC,SRID=4326;POINT(21.9328776620567 49.9940807992512)
55161,18.804678412732,53.4466710786947,merge,400000;220000;110000,,"Projektowana rozbudowa SE Grudziądz Węgrowo;Stacja elektroenergetyczna ""Grudziądz - Węgrowo"" 400/220/110 kV",PSE;Energa,GRU,SRID=4326;POINT(18.804678412732 53.4466710786947)
39966,21.9892139128248,51.4537254992011,substation,,,"Stacja elektroenergetyczna ""Puławy"" 220kV",,PUL,SRID=4326;POINT(21.9892139128248 51.4537254992011)
24003,20.097462304734,50.02459296983,joint,220000,,220kV Lubocza - Wanda;220kV Skawina - Klikowa; Lubocza -Wanda;220kV Skawina - Klikowa,,,SRID=4326;POINT(20.097462304734 50.02459296983)
49036,20.74197245574,52.2270544729115,substation,400000;220000;110000,,"Stacja elektroenergetyczna ""Ołtarzew"" 400/220/110kV",PSE,OLT,SRID=4326;POINT(20.74197245574 52.2270544729115)
8472,16.965640158719,51.0623172880475,substation,220000;110000,,"Stacja elektroenergetyczna ""Klecina"" 220/110 kV",PSE Operator,KLE,SRID=4326;POINT(16.965640158719 51.0623172880475)
9230,16.590080569245,51.876277541857,substation,220000;110000,,"Stacja elektroenergetyczna ""Leszno"" 220/110 kV",PSE Operator,LES,SRID=4326;POINT(16.590080569245 51.876277541857)
61610,19.3405925113169,50.3485200752594,joint,,,,,,SRID=4326;POINT(19.3405925113169 50.3485200752594)
64678,19.2515288628098,50.7606598988513,joint,220000,,220kV Joachimów - Łagisza/Wrzosowa;220kV Joachimów - Huta Częstochowa;220kV Joachimów - Huta Częstochowa + Łagisza/Wrzosowa,,,SRID=4326;POINT(19.2515288628098 50.7606598988513)
41385,15.1149656392042,51.0905747712724,substation,400000;220000;110000,,Stacja elektroenergetyczna „Mikułowa” 400/220/110 kV,PSE Operator,MIK,SRID=4326;POINT(15.1149656392042 51.0905747712724)
30697,18.8743238495568,50.190962568271,joint,220000,,220kV Kopanina - Katowice;220kV Kopanina - Halemba; Kopanina - Katowice;220kV KOP - Katowice;220kV Kopanina - Halemba,,,SRID=4326;POINT(18.8743238495568 50.190962568271)
57296,18.6720367223023,50.1213413807584,joint,220000,,220kV Kopanina - Lískovec;220kV Wielopole - Kopanina; Kopanina - Lískovec;220kV Wielopole - Kopanina,,,SRID=4326;POINT(18.6720367223023 50.1213413807584)
57965,23.202779599456,50.7771190133477,joint,220000,,220kV Mokre - Chełm;220kV Abramowice - Mokre;220kV Mokre - Chełm/Abramowice,,,SRID=4326;POINT(23.202779599456 50.7771190133477)
54520,18.2350655622451,52.3051822526976,merge,220000;110000;400000,,"Stacja elektroenergetyczna ""Pątnów"" 220/110 kV",PSE Operator,PAT,SRID=4326;POINT(18.2350655622451 52.3051822526976)
44543,22.3234327771975,53.7739058546724,substation,220000;110000,,"Stacja elektroenergetyczna ""Ełk"" 220/110 kV",PSE Operator,,SRID=4326;POINT(22.3234327771975 53.7739058546724)
49612,19.2117395461687,49.7803522933245,plant,,,,,,SRID=4326;POINT(19.2117395461687 49.7803522933245)
57840,14.5752629520476,53.5171871636185,joint,220000,50,220kV Morzyczyn - Glinki;220kV Morzyczyn - Police,,,SRID=4326;POINT(14.5752629520476 53.5171871636185)
23758,16.5279901739469,51.9097666920789,joint,220000,50,"220kV Plewiska - Polkowice, 220kV Plewiska - Leszno;220kV Plewiska - Leszno;220kV Plewiska - Polkowice",,,SRID=4326;POINT(16.5279901739469 51.9097666920789)
54917,18.1155704010364,53.1301688016204,merge,,,"Stacja elektroenergetyczna 110kV ""Romet""",,,SRID=4326;POINT(18.1155704010364 53.1301688016204)
58037,20.9334684644534,50.1052440759827,joint,110000;220000,,110kV Niedomice - Oleśnicka;220kV Klikowa - Niziny,,,SRID=4326;POINT(20.9334684644534 50.1052440759827)
49282,18.2816864627454,52.2732791785885,substation,110000;30000;6000,,Stacja elektroenergetyczna 110/30/6kV Huta Aluminium,Aluminium Konin - Impexmetal S.A.,HUA,SRID=4326;POINT(18.2816864627454 52.2732791785885)
29281,14.912555979812,50.9490773290919,joint,220000,,220kV Turów - Mikułowa x2,,,SRID=4326;POINT(14.912555979812 50.9490773290919)
30692,21.1415388556755,50.1046361071113,joint,400000,,400 kV Rzeszów - Tarnów / Tucznawa;400 kV Tucznawa - Rzeszów;400kV Rzeszów - Tarnów,,,SRID=4326;POINT(21.1415388556755 50.1046361071113)
23768,18.6983744281174,49.8946114178397,joint,220000,,220kV Komorowice - Bieruń;220kV Komorowice - Bieruń; Moszczenica - Czeczot;220kV Moszczenica - Czeczot,,,SRID=4326;POINT(18.6983744281174 49.8946114178397)
23766,18.6961509181262,49.8926455075403,joint,220000,,220kV Bujaków - Lískovec;220kV Moszczenica - Czeczot;220kV Bujaków - Lískovec;220kV Moszczenica - Czeczot,,,SRID=4326;POINT(18.6961509181262 49.8926455075403)
23932,21.3323010469923,50.4482194964481,joint,220000,,220 kV Połaniec - Chmielów;220 kV Połaniec - Klikowa;220 kV Połaniec - Klikowa; Połaniec - Chmielów,,,SRID=4326;POINT(21.3323010469923 50.4482194964481)
31968,21.049509958247,50.4610299777053,joint,110000;220000;110000,,220kV Klikowa - ? + 110kV;220kV Klikowa - Niziny;110kV Połaniec - Grzybów,,,SRID=4326;POINT(21.049509958247 50.4610299777053)
57193,16.9043951476079,51.0197085626604,joint,220000,,220kV Świebodzice - Klecina odg.Biskupice;220kV Świebodzice - Klecina,,,SRID=4326;POINT(16.9043951476079 51.0197085626604)
21362,16.354803954433,50.8535489857367,merge,220000;110000,,"Stacja elektroenergetyczna „Świebodzice” 220/110 kV;Stacja elektroenergetyczna ""Świebodzice"" 400 kV",PSE Operator,SWI,SRID=4326;POINT(16.354803954433 50.8535489857367)
45694,18.2938072135226,50.3590885589305,substation,,,"Stacja elektroenergetyczna ""Blachownia"" 220/110kV",,BLA,SRID=4326;POINT(18.2938072135226 50.3590885589305)
14674,19.3481519591577,52.2487176128276,substation,110000;15000,,Stacja elektroenergetyczna 110/15kV Kutno,Energa,KUT,SRID=4326;POINT(19.3481519591577 52.2487176128276)
46547,20.5221169251779,50.7877496693967,substation,220000;110000,,"Stacja elektroenergetyczna ""Radkowice"" 220/110/30/15kV",PSE Operator,RAD,SRID=4326;POINT(20.5221169251779 50.7877496693967)
21858,16.8882276475812,54.4968926850201,joint,400000;110000;110000;400000,50,400kV Słupsk - Dunowo;110kV Słupsk Wierzbięcino - Marszewo,,,SRID=4326;POINT(16.8882276475812 54.4968926850201)
58076,19.0654943251703,50.2733569044447,joint,220000,,220kV Łagisza - Byczyna / Halemba;220kV Łagisza - Katowice; Łagisza - Byczyna / Halemba;220kV Łagisza - Katowice,,,SRID=4326;POINT(19.0654943251703 50.2733569044447)
9622,16.8804797434784,51.0032522758732,substation,,,"Stacja elektroenergetyczna ""Wrocław"" 400/110kV",,,SRID=4326;POINT(16.8804797434784 51.0032522758732)
10865,23.292830049508,50.7167365649851,substation,220000;110000,,Stacja elektroenergetyczna „Zamość” 220/110 kV,PSE Operator,ZAM,SRID=4326;POINT(23.292830049508 50.7167365649851)
51184,19.1772831824745,50.2372776216643,substation,,,,,,SRID=4326;POINT(19.1772831824745 50.2372776216643)
15222,21.3229664564734,50.4382794785747,substation,110000,,"Stacja elektroenergetyczna ""Połaniec"" 110/15kV",,,SRID=4326;POINT(21.3229664564734 50.4382794785747)
33621,19.2365049888406,50.4372332821909,joint,400000,,400kV Rogowiec - Tucznawa;400kV Łagisza - Tucznawa + Rogowiec - Tucznawa;400kV Łagisza - Tucznawa,,,SRID=4326;POINT(19.2365049888406 50.4372332821909)
64384,18.3784057528551,50.0981623618612,joint,400000,50,400kV Dobrzeń - Albrechtice;400kV Dobrzeń - Wielopole;400kV Dobrzeń - Albrechtice + Dobrzeń - Wielopole,,,SRID=4326;POINT(18.3784057528551 50.0981623618612)
57999,19.1783638676957,50.3876360873011,joint,400000;400000;220000;220000,,400kV Rokitnica - Łagisza + Łagisza - Tucznawa;400kV Rokitnica - Łagisza + Łagisza - Tucznawa + 220kV Łagisza - Wrzosowa/Joachimów;220kV Joachimów - Łagisza/Wrzosowa,,,SRID=4326;POINT(19.1783638676957 50.3876360873011)
57418,20.1472501717149,52.3925432892539,joint,400000,50,400kV Płock - Ołtarzew;2x400kV Płock - Ołtarzew + Rogowiec - Płock;400kV Rogowiec - Płock,PSE,,SRID=4326;POINT(20.1472501717149 52.3925432892539)
57624,18.3791915990657,50.0931235737956,joint,400000,50,400kV Albrechtice - Dobrzeń + Nosovice - Wielopole;400kV Dobrzeń - Albrechtice;400kV Nosovice - Wielopole,,443+444,SRID=4326;POINT(18.3791915990657 50.0931235737956)
31966,21.048399999882,50.3007399747554,joint,110000;220000,,110kV Oleśnicka - Szczucin;220kV Klikowa - Niziny,,,SRID=4326;POINT(21.048399999882 50.3007399747554)
24148,19.1009424751023,50.0180547905266,joint,220000,,220kV Czeczot - Poręba;220kV Komorowice - Bieruń; Czeczot - Poręba;220kV Komorowice - Bieruń,,,SRID=4326;POINT(19.1009424751023 50.0180547905266)
23738,18.3833145068936,50.0997887889017,joint,400000,50,400kV Dobrzeń - Wielopole;400kV Nosovice - Wielopole + Dobrzeń - Wielopole;400kV Nosovice - Wielopole,,,SRID=4326;POINT(18.3833145068936 50.0997887889017)
5327,19.2185413273872,50.3384824950078,substation,,,"Stacja elektroenergetyczna ""Gołonóg"" 110kV",,,SRID=4326;POINT(19.2185413273872 50.3384824950078)
58011,18.2437508968799,50.3354489906435,joint,220000,,220kV Wielopole - Blachownia;220kV Groszowice - Kędzierzyn; Wielopole - Blachownia;220kV Groszowice - Kędzierzyn,,,SRID=4326;POINT(18.2437508968799 50.3354489906435)
47656,23.1407222488576,53.1488993889265,substation,220000;110000,,"Stacja elektroenergetyczna ""Białystok"" 220/110 kV",PSE Operator,BIA,SRID=4326;POINT(23.1407222488576 53.1488993889265)
44304,21.8526464260486,49.6882153644544,substation,400000;110000,,"Stacja elektroenergetyczna ""Krosno Iskrzynia"" 400/110 kV",PSE Operator,KRI,SRID=4326;POINT(21.8526464260486 49.6882153644544)
57295,18.6672114217537,50.1189215082944,joint,220000,,220kV Kopanina - Lískovec;220kV Wielopole - Moszczenica; Kopanina - Lískovec;220kV Wielopole - Moszczenica,,,SRID=4326;POINT(18.6672114217537 50.1189215082944)
58040,21.136347222154,50.1062278030518,joint,400000,,400 kV Połaniec - Tarnów;400kV Tucznawa - Rzeszów + Połaniec - Tarnów;400 kV Tucznawa - Rzeszów,,,SRID=4326;POINT(21.136347222154 50.1062278030518)
57796,21.347708860914,50.446487716297,joint,220000,,220 kV Połaniec - Klikowa;220 kV Połaniec - Chmielów;220 kV Połaniec - Klikowa; Połaniec - Chmielów,,,SRID=4326;POINT(21.347708860914 50.446487716297)
14872,19.3166446568155,50.7600330902635,substation,400000;220000,,Stacja elektroenergetyczna „Joachimów” 400/220 kV,PSE Operator,JOA,SRID=4326;POINT(19.3166446568155 50.7600330902635)
33610,19.3946387520707,51.900248163114,joint,220000,50,220kV Adamów - Zgierz;220kV Zgierz - Janów;220kV Adamów - Zgierz; Zgierz - Janów,PSE Operator,,SRID=4326;POINT(19.3946387520707 51.900248163114)
54300,16.9774909174657,52.4743053497491,merge,220000;110000,,"Stacja elektroenergetyczna ""Czerwonak"" 220/110 kV",PSE Operator,CZE,SRID=4326;POINT(16.9774909174657 52.4743053497491)
29283,21.4669005966108,51.6652128184545,joint,110000;220000;220000;220000;220000;220000;220000;110000,,,,TR-3,SRID=4326;POINT(21.4669005966108 51.6652128184545)
67262,19.1981835774723,50.157409886825,joint,,,,,,SRID=4326;POINT(19.1981835774723 50.157409886825)
58039,21.1463926328186,50.1056037719004,joint,400000;220000;400000;220000,,400 kV Połaniec - Tarnów ; 220 kV Połaniec - Klikowa;400 kV Połaniec - Tarnów;220kV Połaniec - Klikowa,,,SRID=4326;POINT(21.1463926328186 50.1056037719004)
13771,19.1665406179959,50.7539553575433,substation,220000;110000,,"Stacja elektroenergetyczna ""Wrzosowa"" 220/110 kV",PSE Operator,WRZ,SRID=4326;POINT(19.1665406179959 50.7539553575433)
24149,19.2122927868192,50.0890754820922,joint,220000,,220kV Byczyna- Bieruń; Byczyna - Poręba;220kV Byczyna - Poręba;220kV Byczyna - Bieruń,,,SRID=4326;POINT(19.2122927868192 50.0890754820922)
11592,18.8495595027479,50.1305502315098,substation,220000;110000,,"Stacja elektroenergetyczna ""Kopanina"" 220/110 kV",PSE Operator,KOP,SRID=4326;POINT(18.8495595027479 50.1305502315098)
23543,20.1559393059636,52.3569644017081,joint,400000,50,2x400kV Płock - Ołtarzew + Rogowiec - Płock;400kV Płock - Ołtarzew;400kV Rogowiec - Płock,,,SRID=4326;POINT(20.1559393059636 52.3569644017081)
29052,14.5739413506016,53.5170517635356,joint,220000,50,220kV Glinki - Police;220kV Morzyczyn - Police,,,SRID=4326;POINT(14.5739413506016 53.5170517635356)
39407,19.251179270254,50.3288579962815,substation,,,"Stacja elektroenergetyczna ""Podlesie"" 110kV",,,SRID=4326;POINT(19.251179270254 50.3288579962815)
25102,19.1400438936318,50.2518476032565,joint,,,,,,SRID=4326;POINT(19.1400438936318 50.2518476032565)
52053,17.9713458273173,50.6135423757257,substation,220000;110000,,"Stacja Energetyczna ""Groszowice"" 220/110 kV",PSE Operator,GRO,SRID=4326;POINT(17.9713458273173 50.6135423757257)
55284,16.0750192940392,51.4972513015237,merge,220000;110000,,"Stacja elektroenergetyczna ""Polkowice"" 220/110 kV;Stacja elektroenergetyczna 110kV",PSE Operator,POL,SRID=4326;POINT(16.0750192940392 51.4972513015237)
24114,17.6942806328307,51.1084972149864,joint,400000,,400kV Dobrzeń - Pasikurowice;2 x 400 kV Dobrzeń - Pasikurowice / Trębaczew;400kV Dobrzeń - Trębaczew,,,SRID=4326;POINT(17.6942806328307 51.1084972149864)
29810,20.741259805866,52.2365815821712,joint,220000,50,220kV Sochaczew - Ołtarzew;220 kV Ołtarzew - Mory,,,SRID=4326;POINT(20.741259805866 52.2365815821712)
4828,18.1074004123209,53.1359917580274,substation,220000;110000,,"Stacja elektroenergetyczna ""Jasiniec"" 220/110 kV",PSE Operator; Enea Operator,JAS,SRID=4326;POINT(18.1074004123209 53.1359917580274)
24134,21.1631586994499,51.4653086154901,joint,220000,,220 kV;2x220kV Kozienice - Rożki,,,SRID=4326;POINT(21.1631586994499 51.4653086154901)
15201,21.4517093953179,50.9388503124155,substation,400000;110000,,"Stacja elektroenergetyczna ""Ostrowiec"" 400/110 kV",PSE Operator,OSC,SRID=4326;POINT(21.4517093953179 50.9388503124155)
54809,16.7791705646624,52.3686115430509,merge,15000;400;400000;220000;110000,,"Stacja elektroenergetyczna ""Plewiska"" 400/220/110 kV",PSE Operator,PLE,SRID=4326;POINT(16.7791705646624 52.3686115430509)
23931,21.3489604835994,50.4458261977627,joint,400000;220000;400000;220000,,400 kV Rzeszów - Połaniec; 220 kV Połaniec - Chmielów;400 kV Rzeszów - Połaniec;220 kV Połaniec - Chmielów,,,SRID=4326;POINT(21.3489604835994 50.4458261977627)
40038,20.9855550638064,52.2274256226592,substation,,,"Stacja elektroenergetyczna ""Towarowa"" 220/110/15kV",,,SRID=4326;POINT(20.9855550638064 52.2274256226592)
23930,21.4010398630385,50.4292904935825,joint,400000;220000;220000;400000,,400 kV Rzeszów - Połaniec; 220 kV Połaniec - Chmielów;220 kV Połaniec - Chmielów II;400 kV Rzeszów - Połaniec,,,SRID=4326;POINT(21.4010398630385 50.4292904935825)
21008,19.1682944562054,50.7760303157105,merge,,,"Stacja elektroenergetyczna ""Odlewnia"" 110 kV;Stacja elektroenergetyczna ""Huta Częstochowa"" 220/110 kV",,,SRID=4326;POINT(19.1682944562054 50.7760303157105)
47651,19.1423134794916,50.8320526362845,substation,220000;110000,,"Stacja elektroenergetyczna ""Aniołów"" 220/110 kV",PSE Operator,ANI,SRID=4326;POINT(19.1423134794916 50.8320526362845)
49316,19.0315230255378,49.8742279450279,substation,,,,,,SRID=4326;POINT(19.0315230255378 49.8742279450279)
16916,22.301998933955,53.7569145538838,substation,400000,,"Stacja elektroenergetyczna ""Ełk Bis"" 400 kV",,,SRID=4326;POINT(22.301998933955 53.7569145538838)
46545,20.4150853047228,50.8998456322033,substation,400000;220000,,"Stacja elektroenergetyczna ""Kielce"" 400/220kV",PSE Operator,KIE,SRID=4326;POINT(20.4150853047228 50.8998456322033)
9837,19.2749867249282,50.2158473354691,substation,,,,,,SRID=4326;POINT(19.2749867249282 50.2158473354691)
58012,18.2929061702378,50.381162860699,joint,220000,,220kV Wielopole - Blachownia;220kV Groszowice - Kędzierzyn;220kV Groszowice - Kędzierzyn; Wielopole - Blachownia,,,SRID=4326;POINT(18.2929061702378 50.381162860699)
22664,19.0521631466909,49.8648145816806,joint,220000,,220kV Bujaków - Lískovec; Komorowice - Bieruń;220kV Bujaków - Lískovec;220kV Komorowice - Bieruń,,,SRID=4326;POINT(19.0521631466909 49.8648145816806)
35008,22.4216287032353,51.2483902909579,substation,,,,,,SRID=4326;POINT(22.4216287032353 51.2483902909579)
43588,16.2892496447616,51.3919472311932,substation,400000;110000,,"Stacja elektroenergetyczna ""Czarna"" 400/110 kV",PSE Operator,CRN,SRID=4326;POINT(16.2892496447616 51.3919472311932)
43044,20.2587905126329,52.2326758615452,substation,220000;110000,,"Stacja elektroenergetyczna ""Sochaczew"" 220/110kV",PSE Operator,SOC,SRID=4326;POINT(20.2587905126329 52.2326758615452)
13686,21.8710468739922,50.1914848711349,substation,750000;400000;110000,,Rzeszów Systemowa (Widełka) 750/400/110 kV,PSE Operator,RZE,SRID=4326;POINT(21.8710468739922 50.1914848711349)
48319,15.4924043616322,51.9524072657687,substation,,,,,,SRID=4326;POINT(15.4924043616322 51.9524072657687)
22693,18.7742127196856,50.3711733953653,joint,400000,,400kV Rokitnica - Łagisza;400kV Wielopole - Joachimów;400kV Wielopole - Joachimów + Rokitnica - Łagisza,,,SRID=4326;POINT(18.7742127196856 50.3711733953653)
46546,21.3319580328554,50.4426330236847,substation,400000;220000;110000;15000,,"Stacja elektroenergetyczna ""Połaniec"" 400/220/110kV",PSE Operator,PEL,SRID=4326;POINT(21.3319580328554 50.4426330236847)
29850,20.873267506362,52.2191566861762,joint,220000,50,220 kV Ołtarzew - Mory;220 kV Podolszyce - Mory,PSE,,SRID=4326;POINT(20.873267506362 52.2191566861762)
30649,19.1484471839571,50.358291713544,joint,400000;220000;400000;220000,,400kV Rokitnica - Łagisza + Łagisza - Tucznawa + 220kV Łagisza - Wrzosowa/Joachimów;400kV Rokitnica - Łagisza + Łagisza - Tucznawa;220kV Łagisza - Wrzosowa - Joachimów,,,SRID=4326;POINT(19.1484471839571 50.358291713544)
30553,19.1907201944287,49.8036306149253,joint,,,,,,SRID=4326;POINT(19.1907201944287 49.8036306149253)
38731,19.2694391715371,50.3258158974571,substation,220000;110000,,"Stacja elektroenergetyczna ""Jamki"" 220/110kV",PSE Operator,JAM,SRID=4326;POINT(19.2694391715371 50.3258158974571)
32159,19.3239542749506,51.269591900716,joint,400000,,400kV Elektrownia Bełchatów - Rogowiec x2;400kV Elektrownia Bełchatów - Rogowiec;400kV Elektrownia Bełchatów - Rogowiec,,,SRID=4326;POINT(19.3239542749506 51.269591900716)
14740,16.871534704335,53.0792977396797,substation,220000;110000,,"Stacja elektroenergetyczna ""Piła Krzewina"" 220/110 kV",PSE Operator,PKW,SRID=4326;POINT(16.871534704335 53.0792977396797)
7430,20.0789058476505,50.0615073496911,substation,220000;110000,,Stacja elektroenergetyczna „Wanda” 220/110 kV,PSE Operator,WAN,SRID=4326;POINT(20.0789058476505 50.0615073496911)
15241,17.1689297121977,52.2811342273743,substation,400000;110000,,Stacja elektroenergetyczna Kromolice 400/110kV,PSE Operator,KRM,SRID=4326;POINT(17.1689297121977 52.2811342273743)
67615,19.0843127727312,50.2039135834461,joint,220000,,220kV Łagisza - Byczyna / Halemba;220kV Łagisza - Byczyna / Halemba; Kopanina - Katowice;220kV Łagisza - Byczyna / Halemba; Kopanina - Katowice,,,SRID=4326;POINT(19.0843127727312 50.2039135834461)
64370,16.5231046862742,51.9014545030108,joint,220000,50,"220kV Plewiska - Polkowice;220kV Polkowice - Leszno;220kV Polkowice - Leszno, 220kV Plewiska - Polkowice",,,SRID=4326;POINT(16.5231046862742 51.9014545030108)
64258,20.8765397096159,52.0623767039259,joint,220000,,220kV Mory - Piaseczno;220kV Mory / Kozienice - Piaseczno;220kV Kozienice - Piaseczno,,,SRID=4326;POINT(20.8765397096159 52.0623767039259)
57957,18.2943386237898,52.3833520018172,joint,220000,50,220kV Pątnów - Bydgoszcz Jasiniec tor I;220kV Pątnów - Bydgoszcz Jasiniec tor II;2x220kV Pątnów - Bydgoszcz Jasiniec,PSE Operator oddział Bydgoszcz,,SRID=4326;POINT(18.2943386237898 52.3833520018172)
61611,19.2359298873957,50.4381841988924,joint,400000,,400kV Wielopole - Joachimów;400kV Rogowiec - Tucznawa;400kV Wielopole - Joachimów + Rogowiec - Tucznawa,,,SRID=4326;POINT(19.2359298873957 50.4381841988924)
20723,18.7722668990365,50.3654950215974,merge,400000;110000;110000;110000;110000;400000;110000,,"Stacja elektroenergetyczna ""Rokitnica"" 400/110kV",PSE Operator,ROK,SRID=4326;POINT(18.7722668990365 50.3654950215974)
40861,19.3677907262725,51.6776339955704,substation,220000;110000,,"Stacja elektroenergetyczna ""Pabianice"" 220/110 kV",,PAB,SRID=4326;POINT(19.3677907262725 51.6776339955704)
33608,14.4324329778292,53.4759328962969,joint,110000;220000,,110kV Glinki - Pomorzany;220kV Krajnik - Glinki,,1057,SRID=4326;POINT(14.4324329778292 53.4759328962969)
67125,16.7932542331837,52.359393206524,joint,400000;220000;220000,50,400kV Plewiska - Ostrów + 220kV Plewiska - Konin;400kV Plewiska - Ostrów + 220kv Plewiska - Konin + 220kV Plewiska - PPD + unused;220kV Plewiska - Poznań Południe,,,SRID=4326;POINT(16.7932542331837 52.359393206524)
42925,18.6704498383423,53.0447238421644,substation,220000;110000,50,Stacja elektroenergetyczna „Toruń - Elana” 220/110 kV,PSE/Energa,TEL,SRID=4326;POINT(18.6704498383423 53.0447238421644)
29692,21.5482812839541,52.2669797932302,joint,400000,50,400kV Miłosna - Stanisławów,PSE Operator,,SRID=4326;POINT(21.5482812839541 52.2669797932302)
33607,14.4722339144705,53.1976747943424,joint,400000;220000,50,,,,SRID=4326;POINT(14.4722339144705 53.1976747943424)
54249,20.3480115279164,53.8273487059361,merge,400000;220000;110000,,Stacja elektroenergetyczna „Olsztyn Mątki” 400/220/110 kV,PSE Operator,OLM,SRID=4326;POINT(20.3480115279164 53.8273487059361)
30686,19.4442726478119,51.1796306757596,joint,220000,50,220 kV Rogowiec - Joachimów tor 2;220 kV Rogowiec - Joachimów tor 1;220 kV Rogowiec - Joachimów,,,SRID=4326;POINT(19.4442726478119 51.1796306757596)
59671,19.1918769550201,50.7596670035592,joint,220000,,220kV Wrzosowa/Joachimów - Huta Częstochowa;220kV Joachimów - Huta Częstochowa;220kV Wrzosowa - Huta Częstochowa,,,SRID=4326;POINT(19.1918769550201 50.7596670035592)
45659,18.563352567576,49.9412408820588,substation,220000;110000,,Stacja elektroenergetyczna „Moszczenica” 220/110 kV,PSE Operator,MOS,SRID=4326;POINT(18.563352567576 49.9412408820588)
54303,19.4647448582586,50.2088211289879,merge,220000;110000,,Stacja elektroenergetyczna „Siersza” 220/110kV,PSE Operator,SIE,SRID=4326;POINT(19.4647448582586 50.2088211289879)
64624,18.2912716855783,52.2758727053082,joint,220000,50,220kV Pątnów - Podolszyce;220kV Konin - Sochaczew,PSE,,SRID=4326;POINT(18.2912716855783 52.2758727053082)
52338,21.0589648608973,50.5013585268578,substation,,,"Stacja elektroenergetyczna 220kV ""Niziny"" (nieczynna)",,,SRID=4326;POINT(21.0589648608973 50.5013585268578)
16407,19.1049599556878,50.0179821204778,substation,,,Stacja elektroenergetyczna „Czeczot” 220/110 kV,,,SRID=4326;POINT(19.1049599556878 50.0179821204778)
63865,20.0908253717519,50.0234628772893,joint,220000,,220kV Skawina - Wanda + Lubocza - Wanda;220kV Lubocza - Wanda;220kV Skawina - Wanda,Polskie Sieci Elektroenergetyczne S.A.,,SRID=4326;POINT(20.0908253717519 50.0234628772893)
24180,19.0639557805831,50.2723566912143,joint,220000,,220kV Łagisza - Byczyna / Halemba;220kV Kopanina - Katowice;220kV Łagisza - Byczyna / Halemba; Kopanina - Katowice,,,SRID=4326;POINT(19.0639557805831 50.2723566912143)
31894,21.0481836855615,50.4321281006585,joint,110000;220000,,110kV Szczucin - Cegielnia Oleśnica;220kV Klikowa - Niziny,,,SRID=4326;POINT(21.0481836855615 50.4321281006585)
24090,21.3491878471978,50.4442628057688,joint,400000;220000;400000,,400 kV Połaniec - Tarnów ; 220 kV Połaniec - Klikowa;220 kV Połaniec - Klikowa;400 kV Połaniec - Tarnów,,,SRID=4326;POINT(21.3491878471978 50.4442628057688)
46237,23.4395637163163,51.158263294224,substation,220000;110000,,"Stacja elektroenergetyczna ""Chełm"" 220/110 kV",PSE Operator,CHS,SRID=4326;POINT(23.4395637163163 51.158263294224)
57505,16.5276278833928,51.9049694100669,joint,220000,50,"220kV Plewiska - Leszno;220kV Polkowice - Leszno;220kV Plewiska - Leszno, 220kV Polkowice - Leszno",,,SRID=4326;POINT(16.5276278833928 51.9049694100669)
5291,19.3446007810946,50.3386737217534,substation,,,"Stacja elektroenergetyczna ""Koksochemia"" 220kV",,KHK,SRID=4326;POINT(19.3446007810946 50.3386737217534)
3075,14.8963773251558,53.3546209327705,substation,400000;220000;110000,,"Stacja elektroenergetyczna ""Morzyczyn"" 400/220/110 kV",PSE Operator,MON,SRID=4326;POINT(14.8963773251558 53.3546209327705)
20806,22.5840903716451,51.1963351474869,merge,220000;110000;220000,,"Stacja elektroenergetyczna ""Abramowice"" 220/110 kV;Abramowice 220kV GIS",PSE Operator,ABR,SRID=4326;POINT(22.5840903716451 51.1963351474869)
53654,18.6654103480034,53.9453469761335,substation,,,Stacja elektroenergetyczna 400/110 kV Pelplin,,,SRID=4326;POINT(18.6654103480034 53.9453469761335)
58013,18.0200852133363,50.5117586781605,joint,220000;110000,,220kV Groszowice - Kędzierzyn,,,SRID=4326;POINT(18.0200852133363 50.5117586781605)
10535,23.1477582121706,50.6984486004711,substation,220000;110000,,Stacja elektroenergetyczna „Mokre” 220/110 kV,PSE Operator,MKR,SRID=4326;POINT(23.1477582121706 50.6984486004711)
31904,19.3275322647272,51.2696094924717,joint,400000;220000;400000;220000,,400kV + 220kV Elektrownia Bełchatów - Rogowiec;400kV Elektrownia Bełchatów - Rogowiec;220kV Elektrownia Bełchatów - Rogowiec,,,SRID=4326;POINT(19.3275322647272 51.2696094924717)
31967,21.0521599883352,50.3055699707602,joint,110000;220000,,110kV Szczucin - Cegielnia Oleśnica;220kV Klikowa - Niziny,,,SRID=4326;POINT(21.0521599883352 50.3055699707602)
24089,21.452097229179,51.6578471988699,joint,400000,,400kV Kozienice - Ostrowiec + Kozienice - Lublin;400kV Kozienice - Lublin;400kV Kozienice - Ostrowiec,,,SRID=4326;POINT(21.452097229179 51.6578471988699)
20994,14.4654402021599,53.2096763402215,merge,,,,,,SRID=4326;POINT(14.4654402021599 53.2096763402215)
21503,19.3316532604732,50.3769098452567,merge,110000;400000;110000;110000,,Stacja elektroenergetyczna „Tucznawa” 400/110 kV;110kV Tucznawa - Brembo,PSE Operator,TCN,SRID=4326;POINT(19.3316532604732 50.3769098452567)
24001,20.8517571672207,49.9511296792871,joint,400000,,400kV Tucznawa - Rzeszów;400kV Tucznawa - Rzeszów + Tucznawa - Tarnów;400kV Tucznawa - Tarnów,,,SRID=4326;POINT(20.8517571672207 49.9511296792871)
33027,20.9527446036515,50.1802146101153,joint,220000;110000,,220kV Klikowa - Niziny;110kV Szczucin - Oleśnicka odg. Grunwaldzka,,,SRID=4326;POINT(20.9527446036515 50.1802146101153)
21491,16.9139737038955,52.3315118153279,merge,15000;400;220000;110000,,Stacja elektroenergetyczna 220/110 kV Poznań Południe,PSE Operator,MST 1310,SRID=4326;POINT(16.9139737038955 52.3315118153279)
57656,18.6286895962455,49.9374901749853,joint,220000,,220kV Kopanina - Lískovec;220kV Wielopole - Moszczenica;220kV Wielopole - Moszczenica; Kopanina - Lískovec,,,SRID=4326;POINT(18.6286895962455 49.9374901749853)
64679,19.2556333551745,50.792925677039,joint,220000,50,220kV Joachimów - Aniołów;220 kV Rogowiec - Joachimów 1 + Jaochimów - Aniołów;220 kV Rogowiec - Joachimów tor 1,,,SRID=4326;POINT(19.2556333551745 50.792925677039)
10622,18.5419205424532,52.0120417590248,substation,220000;110000,,Stacja elektroenergetyczna Adamów 220/110 kV,PSE Operator,ADA,SRID=4326;POINT(18.5419205424532 52.0120417590248)
27635,19.2346021774058,50.4370620922696,joint,400000,,400kV Wielopole - Joachimów;400kV Wielopole - Joachimów + Łagisza - Tucznawa;400kV Łagisza - Tucznawa,,,SRID=4326;POINT(19.2346021774058 50.4370620922696)
15259,17.873256970961,50.7463466798325,substation,400000;110000,,"Stacja elektroenergetyczna ""Dobrzeń"" 400/110 kV",PSE Operator,DBN,SRID=4326;POINT(17.873256970961 50.7463466798325)
30673,19.0765573473888,51.2996471692455,joint,400000,,400kV Ostrów Wlkp. - Rogowiec + Rogowiec - Trębaczew;400kV Ostrów Wlkp. - Rogowiec;400kV Rogowiec - Trębaczew,,,SRID=4326;POINT(19.0765573473888 51.2996471692455)
45354,16.006215567239,51.6621056184455,substation,220000;110000,,"Stacja elektroenergetyczna ""Żukowice"" 220/110 kV",PSE Operator,ZUK,SRID=4326;POINT(16.006215567239 51.6621056184455)
28463,19.3378602124516,50.3523151121274,joint,400000,,400kV Tucznawa - Rzeszów + Tucznawa - Tarnów,,,SRID=4326;POINT(19.3378602124516 50.3523151121274)
11220,16.7102855357297,54.0241349701493,substation,220000;110000,,"Stacja elektroenergetyczna ""Żydowo"" 220/110 kV",PSE Operator,ZYD,SRID=4326;POINT(16.7102855357297 54.0241349701493)
58721,20.9492501571963,50.1696409921064,joint,110000;220000,,110kV Oleśnicka - Szczucin;220kV Klikowa - Niziny,,,SRID=4326;POINT(20.9492501571963 50.1696409921064)
29504,20.8768853813373,52.0612333997068,joint,220000,,220kV Kozienice - Mory;220kV Kozienice - Mory + Kozienice - Piaseczno;220kV Kozienice - Piaseczno,,,SRID=4326;POINT(20.8768853813373 52.0612333997068)
64391,18.874125501542,50.193138289906,joint,220000,,220kV Łagisza - Byczyna / Halemba; Kopanina - Halemba;220kV Łagisza - Byczyna / Halemba;220kV Kopanina - Halemba,,,SRID=4326;POINT(18.874125501542 50.193138289906)
30630,18.2803055017474,52.2855232816336,joint,220000,50,220kV Pątnów - Podolszyce;220kV Konin - Sochaczew,PSE,,SRID=4326;POINT(18.2803055017474 52.2855232816336)
47680,18.2703294533598,52.2866712881812,substation,220000;110000,,"Stacja elektroenergetyczna ""Konin"" 220/110 kV",PSE Operator,KON,SRID=4326;POINT(18.2703294533598 52.2866712881812)
64687,20.1496767907919,50.0519006751971,joint,220000,,220kV Skawina - Klikowa; Lubocza - Klikowa;220kV Lubocza - Klikowa;220kV Skawina - Klikowa,,,SRID=4326;POINT(20.1496767907919 50.0519006751971)
20492,21.2894164316791,52.2270564341278,merge,110000;400000;220000;110000,,"Milosna 110kV GIS;Stacja elektroenergetyczna ""Miłosna"" 400/220/110 kV",PSE Operator,MIL,SRID=4326;POINT(21.2894164316791 52.2270564341278)
28277,15.2741850316004,52.7448396743325,joint,220000,50,220kV Leśniów - Gorzów;220kV Krajnik - Gorzów,,,SRID=4326;POINT(15.2741850316004 52.7448396743325)
20301,17.8818071769478,50.7517928126488,merge,,50,"Stacja elektroenergetyczna 110kV ""Borki"";PGE Elektrownia Opole S.A.",PGE GiEK S.A.,,SRID=4326;POINT(17.8818071769478 50.7517928126488)
54102,21.4563278624579,51.6617588454001,merge,15000;6000;400;400000;220000;110000,,"Stacja elektroenergetyczna ""Kozienice"" 400/220/110 kV",PSE,KOZ,SRID=4326;POINT(21.4563278624579 51.6617588454001)
32160,19.3249992851206,51.2695947109011,joint,400000,,400kV Elektrownia Bełchatów - Rogowiec x2;400kV Elektrownia Bełchatów - Rogowiec;400kV Elektrownia Bełchatów - Rogowiec,,,SRID=4326;POINT(19.3249992851206 51.2695947109011)
30222,18.661443788472,50.1207224999231,joint,220000,,220kV Wielopole - Kopanina;Wielopole - Moszczenica;220kV Wielopole - Kopanina;220kV Wielopole - Moszczenica,,,SRID=4326;POINT(18.661443788472 50.1207224999231)
24116,19.0723087652525,51.3011163042582,joint,400000,,400kV Trębaczew - Ostrów Wlkp.;400kV Ostrów Wlkp. - Rogowiec;400kV Ostrów Wlkp. - Rogowiec + Ostrów Wlkp. - Trębaczew,,,SRID=4326;POINT(19.0723087652525 51.3011163042582)
58036,20.084204967771,50.0219618174997,joint,220000,,220kV Skawina - Wanda;220kV Skawina - Klikowa / Wanda;220kV Skawina - Klikowa,,,SRID=4326;POINT(20.084204967771 50.0219618174997)
39576,17.1189387527845,51.2137552262607,substation,400000;110000,,Stacja elektroenergetyczna „Pasikurowice” 400/110 kV,PSE Operator,PAS,SRID=4326;POINT(17.1189387527845 51.2137552262607)
16365,19.5528456575526,51.7280891215845,substation,,,Stacja RPZ PKP 110/15KV Łódź Olechów,PKP Energetyka,,SRID=4326;POINT(19.5528456575526 51.7280891215845)
57839,14.5734887793614,53.5153979781793,joint,220000,,220kV Glinki - Police;220kV Morzyczyn - Glinki,,,SRID=4326;POINT(14.5734887793614 53.5153979781793)
38684,14.4762521312891,53.1967495435604,substation,400000;220000,,"Stacja elektroenergetyczna ""Krajnik"" 400/220 kV",PSE Operator,KRA,SRID=4326;POINT(14.4762521312891 53.1967495435604)
6071,20.8813059369033,52.2906316504924,substation,400000;110000,,"Stacja elektroenergetyczna ""Mościska"" 400/110 kV",PSE Operator,MSK,SRID=4326;POINT(20.8813059369033 52.2906316504924)
36971,19.0542326213284,50.2643998714633,substation,220000;110000,,"Stacja elektroenergetyczna ""Katowice"" 220/110 kV",PSE Operator,KAT,SRID=4326;POINT(19.0542326213284 50.2643998714633)
58000,19.1627222223055,50.407694377808,joint,400000,,400kV Rokitnica - Łagisza + Łagisza - Tucznawa;400kV Wielopole - Joachimów + Rokitnica - Łagisza;400kV Wielopole - Joachimów + Łagisza - Tucznawa,,,SRID=4326;POINT(19.1627222223055 50.407694377808)
29702,18.7698584058404,50.3702437653418,joint,400000,,400kV Wielopole - Rokitnica;400kV Wielopole - Joachimów;400kV Wielopole - Joachimów + Wielopole - Rokitnica,,,SRID=4326;POINT(18.7698584058404 50.3702437653418)
24132,18.2433972301526,50.3344944061098,joint,220000,,220kV Kędzierzyn - Wielopole;220kV Wielopole - Blachownia;220kV Wielopole - Kędzierzyn/Blachownia,,,SRID=4326;POINT(18.2433972301526 50.3344944061098)
21561,19.4609594649998,50.4965097780685,merge,220000;110000,,Stacja elektroenergetyczna „Łośnice” 220/110kV,PSE Operator,LOS,SRID=4326;POINT(19.4609594649998 50.4965097780685)
64592,16.8036260916227,50.6057461073317,joint,220000,,220kV Ząbkowice - Groszowice;220kV Świebodzice - Ząbkowice,,,SRID=4326;POINT(16.8036260916227 50.6057461073317)
4691,19.3512234130311,50.3264345451281,substation,,,"Stacja Elektroenergetyczna ""Lipówka"" 110kV",,,SRID=4326;POINT(19.3512234130311 50.3264345451281)
30680,21.0478128610123,51.3585600024518,joint,220000,,220 kV;2x220kV Kozienice - Rożki,,,SRID=4326;POINT(21.0478128610123 51.3585600024518)
11215,15.6848981719463,50.8873708797711,substation,220000;110000,,"Stacja elektroenergetyczna ""Cieplice"" 220/110 kV",PSE Operator,CPC,SRID=4326;POINT(15.6848981719463 50.8873708797711)
54334,22.0782730533038,50.5519625934478,merge,,,"Stacja elektroenergetyczna ""Stalowa Wola"" 220/110 kV",,,SRID=4326;POINT(22.0782730533038 50.5519625934478)
49686,19.2996516691415,51.2675649307042,substation,110000;15000,,"Stacja elektroenergetyczna ""Rogowiec Stary"" 110/15kV",,RGS,SRID=4326;POINT(19.2996516691415 51.2675649307042)
58029,19.1025733665006,50.0163873777855,joint,220000,,220kV Moszczenica - Czeczot;220kV Komorowice - Bieruń; Moszczenica - Czeczot;220kV Komorowice - Bieruń,,,SRID=4326;POINT(19.1025733665006 50.0163873777855)
50429,19.3285243369039,51.3161132789252,substation,400000;220000,,"Stacja elektroenergetyczna ""Rogowiec"" 400/220 kV",PSE Operator,ROG,SRID=4326;POINT(19.3285243369039 51.3161132789252)
49198,17.8785065002084,53.0888797399526,substation,220000;110000,50,"Stacja elektroenergetyczna ""Bydgoszcz Zachód"" 220/110 kV",PSE Operator,BYD,SRID=4326;POINT(17.8785065002084 53.0888797399526)
57951,19.626179606384,52.4235502703954,joint,220000,50,220kV Pątnów - Podolszyce;220 kV Podolszyce - Mory;2x220kV Pątnów - Podolszyce; Podolszyce - Mory,PSE,,SRID=4326;POINT(19.626179606384 52.4235502703954)
58008,19.3222110941417,50.7610610741703,joint,400000,,400kV Rogowiec - Joachimów + Rogowiec - Tucznawa;400kV Rogowiec - Tucznawa;400kV Rogowiec - Joachimów,,,SRID=4326;POINT(19.3222110941417 50.7610610741703)
16479,23.0461568985584,53.0269912198326,substation,400000;110000,,Stacja elektroenergetyczna „Narew” 400/110 kV,PSE Operator,NAR,SRID=4326;POINT(23.0461568985584 53.0269912198326)
28276,15.6856721815467,50.8793873011695,joint,220000,,220kV Cieplice - Boguszów;220kV Mikułowa - Cieplice,,,SRID=4326;POINT(15.6856721815467 50.8793873011695)
38706,14.5812011336938,53.49985650269,substation,220000;110000,,"Stacja elektroenergetyczna ""Glinki"" 220/110 kV",PSE Operator,GLN,SRID=4326;POINT(14.5812011336938 53.49985650269)
43236,22.6162072936966,51.2981173391021,substation,400000;110000,,"Stacja elektroenergetyczna ""Lublin"" 400/110kV",PSE Operator,LSY,SRID=4326;POINT(22.6162072936966 51.2981173391021)
32161,19.3228610252498,51.2696087618238,joint,400000,,400kV Elektrownia Bełchatów - Rogowiec x2;400kV Elektrownia Bełchatów - Rogowiec;400kV Elektrownia Bełchatów - Rogowiec,,,SRID=4326;POINT(19.3228610252498 51.2696087618238)
20303,19.1363158342491,50.2542615483449,merge,,,"Stacja elektroenergetyczna ""Mysłowice"" 110/30/20/6kV",,MSW,SRID=4326;POINT(19.1363158342491 50.2542615483449)
64590,19.0619568494129,50.2726422717174,joint,220000,,220kV Łagisza - Katowice;220kV Kopanina - Katowice;220kV Łagisza - Katowice; Kopanina - Katowice,,,SRID=4326;POINT(19.0619568494129 50.2726422717174)
22663,19.05291306029,49.8648639165421,joint,220000,,220kV Bujaków - Komorowice;220kV Bujaków - Lískovec;220kV Bujaków - Lískovec; Bujaków - Komorowice,,,SRID=4326;POINT(19.05291306029 49.8648639165421)
21410,21.035506558309,52.090690347974,merge,220000;110000,,"Stacja elektroenergetyczna „Piaseczno” 220/110 kV;Piaseczno;Stacja elektroenergetyczna ""ZKK"" 110kV",PSE Operator,PIA,SRID=4326;POINT(21.035506558309 52.090690347974)
24088,21.4887917017362,51.6480028058194,joint,400000,,400kV Kozienice - Lublin;400kV Kozienice - Ostrowiec;400kV Kozienice - Ostrowiec + Kozienice - Lublin,,,SRID=4326;POINT(21.4887917017362 51.6480028058194)
56384,20.8707974986568,52.2902118990816,joint,400000,50,400kV Ołtarzew - Miłosna;400kV Ołtarzew - Mościska / Miłosna;400kV Ołtarzew - Mościska,PSE Operator,,SRID=4326;POINT(20.8707974986568 52.2902118990816)
30291,18.8159250915884,53.4443293721014,joint,400000;220000,50,400kV Grudziądz Węgrowo - Płock;220kV Toruń Elana - Grudziądz Węgrowo,PSE,GRU-PLO,SRID=4326;POINT(18.8159250915884 53.4443293721014)
28869,19.2196591811485,50.2598293417704,joint,220000,,220kV Byczyna - Jamki,,,SRID=4326;POINT(19.2196591811485 50.2598293417704)
54356,19.3841343042787,51.2396802695975,merge,110000;110000;15000;110000;30000,,"110kV Piaski - Grzymalin 2;110kV Piaski - Grzymalin 1;Stacja elektroenergetyczna 110/15kV ""Piaski"";Stacja elektroenergetyczna 110/30kV ""FW Kamieńsk'",PGE Energia Odnawialna S.A.,PAI,SRID=4326;POINT(19.3841343042787 51.2396802695975)
28596,20.986812108378,52.3212058054421,joint,15000;220000;220000;15000;15000,,15kV;220 kV Mory - Miłosna;220 kV Mory - Miłosna,RWE Stoen Operator,,SRID=4326;POINT(20.986812108378 52.3212058054421)
60782,22.8471651448991,52.9277363978994,joint,400000,50,400kV Łomża - Narew;400kV Miłosna - Narew;400kV Miłosna - Narew,PSE Operator,,SRID=4326;POINT(22.8471651448991 52.9277363978994)
45285,16.7899331180318,50.5940692074808,substation,220000;110000,,Stacja elektroenergetyczna „Ząbkowice” 220/110 kV,PSE Operator,ZBK,SRID=4326;POINT(16.7899331180318 50.5940692074808)
65994,21.0487599548163,50.4448099902607,joint,220000;110000,,220kV Klikowa - Niziny;110kV Połaniec - Grzybów,,,SRID=4326;POINT(21.0487599548163 50.4448099902607)
57798,20.8533332613867,49.9526443954949,joint,400000,,400kV Tucznawa - Rzeszów;400kV Połaniec - Tarnów;400kV Tucznawa - Rzeszów + Połaniec - Tarnów,,,SRID=4326;POINT(20.8533332613867 49.9526443954949)
48174,20.6383593740166,50.9046793302895,substation,220000;110000,,"Stacja elektroenergetyczna ""KIELCE PIASKI"" 220/110/30/15kV",PSE Operator,KPK,SRID=4326;POINT(20.6383593740166 50.9046793302895)
55165,15.2674061024966,52.7483228939239,merge,220000;110000,,"Stacja elektroenergetyczna ""Gorzów"" 220/110 kV",PSE Operator,GOR,SRID=4326;POINT(15.2674061024966 52.7483228939239)
32045,19.0537183999423,49.8692586861954,joint,,,110kV Komorowice - EC Czechowice 1,,,SRID=4326;POINT(19.0537183999423 49.8692586861954)
821,19.2390588093618,49.788104198997,substation,,,,,,SRID=4326;POINT(19.2390588093618 49.788104198997)
32012,18.8227015329342,53.4228551011977,joint,400000;220000,50,400kV Grudziądz Węgrowo - Płock;220kV Toruń Elana - Grudziądz Węgrowo,PSE,GRU-PLO,SRID=4326;POINT(18.8227015329342 53.4228551011977)
54658,14.5268621017659,53.5496523192191,merge,,,,,,SRID=4326;POINT(14.5268621017659 53.5496523192191)
43019,19.7183651340665,52.6356389539694,substation,400000;110000,,Stacja elektroenergetyczna „Płock” 400/110 kV,PSE Operator,PLO,SRID=4326;POINT(19.7183651340665 52.6356389539694)
54206,14.5219592538824,53.5643504745343,merge,,,"Stacja elektroenergetyczna ""Police"" 220/110kV",,PLC,SRID=4326;POINT(14.5219592538824 53.5643504745343)
22879,20.1373742731444,50.0485334156941,joint,220000,,220kV Lubocza - Wanda;220kV Skawina - Klikowa; Lubocza -Wanda;220kV Skawina - Klikowa,,,SRID=4326;POINT(20.1373742731444 50.0485334156941)
40658,19.0533052750648,49.862201434637,substation,220000;110000,,"Stacja elektroenergetyczna ""Komorowice"" 220/110 kV",PSE Operator,KOM,SRID=4326;POINT(19.0533052750648 49.862201434637)
64659,19.0740415256041,51.2974871065988,joint,400000,,400kV Trębaczew - Ostrów Wlkp.;400kV Rogowiec - Trębaczew;400kV Trębaczew - Ostrów Wlkp. + Rogowiec - Trębaczew,,,SRID=4326;POINT(19.0740415256041 51.2974871065988)
10530,19.6833442164609,51.428225680527,substation,220000;110000,,Stacja elektroenergetyczna „Piotrków” 220/110 kV,PSE Operator,PIO,SRID=4326;POINT(19.6833442164609 51.428225680527)
49194,19.1694619111711,50.0860930740543,substation,220000;110000,,"Stacja elektroenergetyczna ""Bieruń"" 220/110 kV",PSE Operator,BIR,SRID=4326;POINT(19.1694619111711 50.0860930740543)
29774,19.1504183571851,50.0405523625532,joint,220000,,220kV Czeczot - Poręba; Byczyna - Poręba;220kV Komorowice - Bieruń; Byczyna - Poręba;220kV Komorowice - Bieruń; Czeczot - Poręba,,,SRID=4326;POINT(19.1504183571851 50.0405523625532)
63523,14.9862411165539,53.3861252115005,joint,220000;110000,50,220kV Morzyczyn - Police;110kV Morzyczyn - Recław,,,SRID=4326;POINT(14.9862411165539 53.3861252115005)
41781,21.6232890547686,53.1069573377812,substation,400000;220000;110000,,"Stacja elektroenergetyczna 400/220/110kV ""Ostrołęka""",PSE Operator,OST,SRID=4326;POINT(21.6232890547686 53.1069573377812)
11148,16.1908338208047,50.7526532242679,substation,220000;110000,,"Stacja elektroenergetyczna ""Boguszów"" 220/110 kV",PSE Operator,BOG,SRID=4326;POINT(16.1908338208047 50.7526532242679)
44287,20.9650267224342,49.9694160086826,substation,400000;110000,,Stacja elektroenergetyczna „Tarnów” 400/110 kV,PSE Operator,TAW,SRID=4326;POINT(20.9650267224342 49.9694160086826)
24117,19.3220179563557,50.7594470897165,joint,400000,,400kV Wielopole - Joachimów;400kV Rogowiec - Tucznawa;400kV Wielopole - Joachimów + Rogowiec - Tucznawa,,,SRID=4326;POINT(19.3220179563557 50.7594470897165)
63067,19.2387358509231,49.7848042503892,joint,,,,,,SRID=4326;POINT(19.2387358509231 49.7848042503892)
29453,20.0911360990087,52.1517030621738,joint,400000,50,2x400kV Rogowiec - Płock/Ołtarzew;400kV Rogowiec - Ołtarzew;400kV Rogowiec - Płock,,,SRID=4326;POINT(20.0911360990087 52.1517030621738)
39881,20.0988111313743,50.0958674375462,substation,220000;110000,,"Stacja elektroenergetyczna ""Lubocza"" 220/110kV",PSE Operator,LUA,SRID=4326;POINT(20.0988111313743 50.0958674375462)
42513,19.2733230269668,50.0007241517129,substation,220000;110000,,Stacja elektroenergetyczna „Poręba” 220/110 kV,PSE Operator,PRB,SRID=4326;POINT(19.2733230269668 50.0007241517129)
39809,18.1085910808269,54.7185976174731,substation,400000;110000,,"Stacja elektroenergetyczna ""Żarnowiec"" 400/110 kV",PSE Operator;Energa,ZRC,SRID=4326;POINT(18.1085910808269 54.7185976174731)
52504,20.9582358708292,52.2198335515889,substation,,,,,,SRID=4326;POINT(20.9582358708292 52.2198335515889)
25977,18.4316112603345,54.3366296735186,joint,220000;400000;400000;220000;400000,50,220kV Gdańsk I - Żydowo;2 x 400kV Gdańsk Błonia - Gdańsk I / Żarnowiec;2x 400kV Gdańsk I - Żarnowiec / Gdańsk Błonia + 220kV Gdańsk I - Żydowo;2x400kV Gdańsk Błonia / Gdańsk I - Żarnowiec,PSE Operator oddział Bydgoszcz,,SRID=4326;POINT(18.4316112603345 54.3366296735186)
21142,18.4412733248987,54.3376257963437,merge,220000;400000;220000;110000,,"Stacja elektroenergetyczna ""Gdańsk I"" 400/220/110 kV",PSE Operator,GDA,SRID=4326;POINT(18.4412733248987 54.3376257963437)
30531,20.8557740738452,49.9516858976768,joint,400000,,400kV Połaniec - Tarnów;400kV Tarnów - Połaniec + Tucznawa - Tarnów;400kV Tucznawa - Tarnów,,,SRID=4326;POINT(20.8557740738452 49.9516858976768)
11967,21.0464188585088,51.3380297718583,substation,220000;110000,,Stacja elektroenergetyczna „Rożki” 220/110 kV,PSE Operator,ROZ,SRID=4326;POINT(21.0464188585088 51.3380297718583)
24054,16.9104284127191,52.3032697800273,joint,220000,50,220kV Plewiska - Poznań Południe;220kV Plewiska - PPD + unused,,,SRID=4326;POINT(16.9104284127191 52.3032697800273)
30512,19.2465588436689,50.2534043046651,joint,220000,,220kV Byczyna - Jamki/Koksochemia;220kV Byczyna - Jamki;220kV Byczyna - Koksochemia,,,SRID=4326;POINT(19.2465588436689 50.2534043046651)
30357,16.9625221652029,51.0176140733651,joint,400000;110000;110000,,400kV Pasikurowice - Wrocław;110kV Wrocław - Żórawina;110kV Wrocław - Bielany,,,SRID=4326;POINT(16.9625221652029 51.0176140733651)
58015,19.4757555442483,50.5064832865047,joint,220000,,220 kV Łośnice-Joachimów;220kV Łośnice - Kielce;220 kV Łośnice-Joachimów/Kielce,,,SRID=4326;POINT(19.4757555442483 50.5064832865047)
57799,21.0305544277738,49.9417786651153,joint,400000,,400 kV Tarnów - Krosno Iskrzynia / Rzeszów;400 kV Tarnów - Krosno Iskrzynia;400kV Rzeszów - Tarnów,,,SRID=4326;POINT(21.0305544277738 49.9417786651153)
9862,15.2929853998909,51.9884723389166,substation,220000;110000,,"Stacja elektroenergetyczna ""Leśniów"" 220/110 kV",PSE Operator,LSN,SRID=4326;POINT(15.2929853998909 51.9884723389166)
12024,20.9450319554245,50.0638027865546,substation,220000;110000,,"Stacja elektroenergetyczna ""Klikowa"" 220/110 kV",PSE Operator,KLA,SRID=4326;POINT(20.9450319554245 50.0638027865546)
33602,14.8958997043867,53.3628515907403,joint,220000;110000,50,220kV Morzyczyn - Police;110kV Morzyczyn - Recław,,,SRID=4326;POINT(14.8958997043867 53.3628515907403)
813,20.4171693905856,49.9415916991593,substation,,,,,,SRID=4326;POINT(20.4171693905856 49.9415916991593)
11958,20.1302296560695,50.0772277259367,substation,,,"Stacja elektrenergetyczna 110kV ""HS-9""",,,SRID=4326;POINT(20.1302296560695 50.0772277259367)
46027,21.6715517658521,50.5041540230766,substation,220000;110000,,"Stacja elektroenergetyczna ""Chmielów"" 220/110 kV",PSE Operator,CHM,SRID=4326;POINT(21.6715517658521 50.5041540230766)
65845,21.0664718576102,51.0258902127261,joint,110000;220000,,110kV Starachowice - Nowa Słupia;220kV Rożki - Niziny,,,SRID=4326;POINT(21.0664718576102 51.0258902127261)
45551,18.8521730385062,50.2310109236287,substation,,,"Stacja elektroenergetyczna ""Halemba"" 220/110kV",,HAL,SRID=4326;POINT(18.8521730385062 50.2310109236287)
30605,15.3119174176369,51.9388518656677,joint,220000,,220kV Leśniów - Zielona Góra;220kV Leśniów - Żukowice,,,SRID=4326;POINT(15.3119174176369 51.9388518656677)
16827,19.0417188444209,50.4112220911343,substation,110000,,"Stacja elektroenergetyczna ""Pomłynie"" 110kV",Enion S.A.,POM,SRID=4326;POINT(19.0417188444209 50.4112220911343)
31969,21.0497100130608,50.4664400170215,joint,110000;220000;110000,,220kV Klikowa - ? + 110kV;220kV Klikowa - Niziny;110kV Połaniec - Grzybów,,,SRID=4326;POINT(21.0497100130608 50.4664400170215)
35010,22.4515733245792,51.2114687121836,substation,,,,,,SRID=4326;POINT(22.4515733245792 51.2114687121836)
8424,16.9030565050783,51.020345148303,substation,,,"Stacja elektroenergetyczna ""Biskupice"" 220/110kV",,BSP,SRID=4326;POINT(16.9030565050783 51.020345148303)
30530,21.905786332858,49.7410043011136,joint,400000;110000,,2 x 400 kV Rzeszów - Krosno Iskrzynia;Linia 110kV Iskrzynia - Brzozów;400 kV Rzeszów - Krosno Iskrzynia; 110 kV Krosno - Brzozów,,,SRID=4326;POINT(21.905786332858 49.7410043011136)
44699,19.7357837820031,52.5366996371376,substation,220000;110000,,"Stacja elektroenergetyczna ""Podolszyce"" 220/110kV",PSE Operator; Energa Operator,PDE,SRID=4326;POINT(19.7357837820031 52.5366996371376)
6799,20.5291409383478,53.8029922169087,substation,220000;110000;15000,,Stacja elektroenergetyczna „Olsztyn I” 220/110/15 kV,PSE Operator; Energa Operator,OLS,SRID=4326;POINT(20.5291409383478 53.8029922169087)
54295,21.6099749014911,53.1041615859031,merge,,,Elektrownie Ostrołęka,Energa,,SRID=4326;POINT(21.6099749014911 53.1041615859031)
54458,19.2908007681928,50.1639162170504,merge,220000,,"Stacja elektroenergetyczna „Byczyna” 220 kV;Stacja elektroenergetyczna ""Byczyna"" 400kV (w budowie)",PSE Operator,BYC,SRID=4326;POINT(19.2908007681928 50.1639162170504)
5401,18.9594705637056,52.7006470517692,substation,220000;110000,,"Stacja elektroenergetyczna ""Włocławek Azoty"" 220/110 kV",PSE Operator,WLA,SRID=4326;POINT(18.9594705637056 52.7006470517692)
23765,18.6902858176362,49.8885123845365,joint,220000,50,220kV Kopanina - Lískovec;220kV Bujaków - Lískovec;220kV Kopanina - Lískovec; Bujaków - Lískovec,,245;246,SRID=4326;POINT(18.6902858176362 49.8885123845365)
64641,21.3447670580216,50.4460034769418,joint,400000,,400 kV Rzeszów - Połaniec;400 kV Połaniec - Tarnów;400 kV Tarnów - Połaniec; Rzeszów - Połaniec,,,SRID=4326;POINT(21.3447670580216 50.4460034769418)
41412,18.7096770624766,54.3386818552754,substation,400000;110000,,"Stacja elektroenergetyczna ""Gdańsk Błonia"" 400/110 kV",PSE Operator,GBL,SRID=4326;POINT(18.7096770624766 54.3386818552754)
55283,19.803082479048,49.9764657237081,merge,,,"Elektrownia Skawina S.A.;Stacja elektroenergetyczna ""Skawina"" 220/110kV",CEZ Polska,SKA,SRID=4326;POINT(19.803082479048 49.9764657237081)
62272,21.0768332057603,50.9112914920373,joint,110000;220000,,110kV Starachowice - Nowa Słupia;220kV Rożki - Niziny,,,SRID=4326;POINT(21.0768332057603 50.9112914920373)
57989,22.0577660075712,50.6344807652194,joint,220000,,220kV Chmielów - Stalowa Wola/Abramowice;220 kV Chmielów - Abramowice odg. Stalowa Wola,,,SRID=4326;POINT(22.0577660075712 50.6344807652194)
65923,21.0482914833956,50.4347424993565,joint,220000;110000,,220kV Klikowa - Niziny;110kV Połaniec - Cegielnia Oleśnica,,,SRID=4326;POINT(21.0482914833956 50.4347424993565)
29100,19.2385398676335,49.7842366180652,joint,,,,,,SRID=4326;POINT(19.2385398676335 49.7842366180652)
64293,19.1972740332471,50.1996691151885,joint,220000,,220kV Łagisza - Byczyna / Halemba; Jaworzno blok 6 - Byczyna;220kV Łagisza - Byczyna / Halemba;220kV Jaworzno blok 6 - Byczyna,,,SRID=4326;POINT(19.1972740332471 50.1996691151885)
64684,18.5640885102294,49.9378826973193,joint,220000,,220kV Moszczenica - Czeczot;220kV Wielopole - Moszczenica,,,SRID=4326;POINT(18.5640885102294 49.9378826973193)
36179,16.9107359060409,52.328671897596,substation,15000;400,,,,,SRID=4326;POINT(16.9107359060409 52.328671897596)
29360,19.3287194427521,51.2685946962219,joint,220000,,220kV Elektrownia Bełchatów - Rogowiec,,,SRID=4326;POINT(19.3287194427521 51.2685946962219)
24145,19.2454974841607,50.7439979716747,joint,220000,,220kV Łagisza/Joachimów - Wrzosowa;220kV Joachimów - Łagisza/Wrzosowa;220kV Joachimów - Łagisza/Wrzosowa,,,SRID=4326;POINT(19.2454974841607 50.7439979716747)
62419,18.4996140196664,50.159468973859,joint,400000,50,400kV Nosovice - Wielopole + Dobrzeń - Wielopole,,,SRID=4326;POINT(18.4996140196664 50.159468973859)
23567,19.2972725143817,50.1649995886803,joint,400000,,400kV Tucznawa - Tarnów;400kV Tucznawa - Rzeszów;400kV Tucznawa - Tarnów + Tucznawa - Rzeszów,,,SRID=4326;POINT(19.2972725143817 50.1649995886803)
6807,19.3834458682047,51.8308207531238,substation,220000;110000,,Stacja elektroenergetyczna „Zgierz” 220/110 kV,PSE Operator,ZGI,SRID=4326;POINT(19.3834458682047 51.8308207531238)
21613,16.8915821940956,54.5013491653045,merge,450000;400000;400000;110000;400000;110000,,"Capacitator Bank;Harmonic Filter;Capacitator Bank;SwePol HVDC Static Inverter Plant;Stacja elektrenergetyczna 400/110kV ""Słupsk Wierzbięcino"";Stacja elektrenergetyczna 400/110kV ""Słupsk Wierzbięcino""",PSE Operator,SLK,SRID=4326;POINT(16.8915821940956 54.5013491653045)
37300,19.5615293927184,51.7576692859684,substation,220000;110000,,"Stacja elektroenergetyczna ""Janów"" 220/110 kV",PSE Operator,JAN,SRID=4326;POINT(19.5615293927184 51.7576692859684)
64643,20.5460718846389,53.7968776903717,joint,220000,50,220kV Włocławek - Olsztyn;220kV Ostrołęka 2 - Olsztyn,PSE,,SRID=4326;POINT(20.5460718846389 53.7968776903717)
67263,19.198512989687,50.1813261694117,joint,,,,,,SRID=4326;POINT(19.198512989687 50.1813261694117)
58038,20.9486225941388,50.1669829803899,joint,110000;220000,,110kV Niedomice - Oleśnicka;220kV Klikowa - Niziny,,,SRID=4326;POINT(20.9486225941388 50.1669829803899)
42714,18.5410385183214,50.1230128469839,substation,400000;220000;110000,,Stacja elektroenergetyczna „Wielopole” 400/220/110 kV,PSE Operator,WIE,SRID=4326;POINT(18.5410385183214 50.1230128469839)
